time [sec],pos_east [m],pos_north [m],pos_up [m],vel_east [m/s],vel_north [m/s],vel_up [m/s],omega_roll [rad/s],omega_pitch [rad/s],omega_yaw [rad/s],quat0,quat1,quat2,quat3,yaw [deg],pitch [deg],roll [deg],Mass [kg],Lcg [m],Lcg_prop [m],Lcp [m],Ij_roll [kg m2],Ij_pitch [kg m2],Altitude [km],Downrange [km],vel_air_east [m/s],vel_air_north [m/s],vel_air_up [m/s],vel_air_BODY_x [m/s],vel_air_BODY_y [m/s],vel_air_BODY_z [m/s],vel_air_abs [m/s],alpha [deg],beta [deg],Mach,Dynamics Pressure [kPa],Fst,Drag [N],Normal Force [N],Side Force [N],Thrust [N],Force_BODY_x [N],Force_BODY_y [N],Force_BODY_z [N],Acc_east [m/s2],Acc_north [m/s2],Acc_up [m/s2],Acc_BODY_x [m/s2],Acc_BODY_y [m/s2],Acc_BODY_z [m/s2],Acc_abs [m/s2],Atomospheric Pressure [Pa]
0.0,0.02756066758167065,0.0043158853673786616,0.798852549440691,0.0,0.0,0.0,0.0,0.0,0.0,-0.053897911846684736,0.7171712948364415,0.055812921567253905,0.692564269037406,8.899999999999999,-87.99999999999986,180.0,8.27454,1.257423313440989,1.8117897739045645,1.465,0.02352035483,2.714272706299251,7.988525494406909E-4,2.7896545736913463E-5,-1.3145240835371188,-0.2058489780914372,0.0,-0.04643531636078665,4.718447854656915E-16,-1.329733480579798,1.330544012041838,-87.99999999999987,2.0318542301319836E-14,0.0041798353322177965,0.0010842612146337706,10.190313527688327,0.013409268397849268,-0.3168221771315114,7.315187281866896E-17,30.6311012599431,30.61769199154525,-7.315187281866896E-17,0.3168221771315114,0.16538606024233896,0.025898765886317798,-6.110008988773171,-6.100444704868405,-2.42861286636753E-17,0.38053585997760997,6.112301787206344,101315.40341710926
0.01,0.027559896625149793,0.004315764638809323,0.7988302030813235,1.4920981163794232E-4,2.3365632955342433E-5,0.004324882119611928,0.0,0.0,0.0,-0.053897911846684736,0.7171712948364415,0.055812921567253905,0.692564269037406,8.899999999999999,-87.99999999999986,180.0,8.273282785714287,1.2573090579117092,1.8115372413945348,1.465,0.023519875845988712,2.713636811655941,7.988302030813235E-4,2.7895765384849005E-5,-1.3143667022419236,-0.2058243328383054,0.004324882119611928,-0.04210750937781372,4.440892098500626E-16,-1.3297252145499794,1.3303917425164633,-88.1862593707393,1.912552268520508E-14,0.004179356984160076,0.001084013062081582,10.195922537471326,0.013406199447184058,-0.3174200939154505,6.88409424579155E-17,140.38874245545003,140.37533625600284,-6.88409424579155E-17,0.3174200939154505,0.6229027865063393,0.09754397325883434,7.148985332293055,7.166634287529253,-5.551115123125783E-17,0.38061394917657543,7.176734214773299,101315.4036855449
0.02,0.027590114170446777,0.004320496580123838,0.7997060658675494,0.007269948385642989,0.0011384435361087419,0.2107211947955689,0.0,0.0,0.0,-0.053897911846684736,0.7171712948364415,0.055812921567253905,0.692564269037406,8.899999999999999,-87.99999999999986,180.0,8.272025571428571,1.2571948937290094,1.8112851242847379,1.465,0.023519396880407675,2.7130021188329687,7.997060658675494E-4,2.7926351187313208E-5,-1.3075661109603651,-0.204759388663255,0.2107211947955689,0.16440330185085616,4.718447854656915E-16,-1.3300490660326678,1.3401712441751001,-82.95358530512388,2.017258235463801E-14,0.004210078831330919,0.0011000083651350099,10.201527062886141,0.01360401645737823,-0.3029912788182237,7.368116160640705E-17,331.3055893751961,331.29198535873877,-7.368116160640705E-17,0.3029912788182237,1.4170504200220657,0.22190417392786152,30.21735796186197,30.249007403778204,-1.1102230246251565E-16,0.3788754897927187,30.251380060264925,101315.39316424634
0.03,0.027720700820717696,0.004340945903835216,0.8034911511954976,0.01935155600232054,0.0030303727998943204,0.560909484586621,0.0,0.0,0.0,-0.053897911846684736,0.7171712948364415,0.055812921567253905,0.692564269037406,8.899999999999999,-87.99999999999986,180.0,8.270768357142858,1.2570808209345448,1.8110334241726374,1.465,0.02351891793325141,2.712368626431346,8.034911511954977E-4,2.805852927955709E-5,-1.2968649082535018,-0.20308362503964011,0.560909484586621,0.5147562843732891,4.163336342344337E-16,-1.3314454425983961,1.4274876528074887,-68.86276903603158,1.6710589449976386E-14,0.004484379043646274,0.0012480154467930105,10.207127101887842,0.01543444869635201,-0.2853667846269748,6.924855400551893E-17,401.24417259302345,401.2287381443271,-6.924855400551893E-17,0.2853667846269748,1.7067151975113082,0.267264467574821,38.6742606483876,38.71099072754586,-1.1102230246251565E-16,0.37675011920910606,38.712824022027455,101315.34769593313
0.04,0.027985557807399444,0.004382421401113371,0.8111680943762428,0.03396723875733752,0.00531912764045478,0.9845485490636622,0.0,0.0,0.0,-0.053897911846684736,0.7171712948364415,0.055812921567253905,0.692564269037406,8.899999999999999,-87.99999999999986,180.0,8.269511142857143,1.2569668395699976,1.810782142663898,1.465,0.023518439004514436,2.7117363330516686,8.111680943762428E-4,2.832661404277314E-5,-1.2850335154448094,-0.2012308783691384,0.9845485490636622,0.9385552211074238,4.163336342344337E-16,-1.3342619475279272,1.631300354836295,-54.87643046352446,1.4622788525887494E-14,0.0051246466717934655,0.00162983177674852,10.212722652430168,0.02015644518387235,-0.29698028123726716,7.913561090271107E-17,447.6641962845973,447.64403983941344,-7.913561090271107E-17,0.29698028123726716,1.90188750771422,0.29782763572835447,44.29098595722179,44.33118890428196,-2.220446049250313E-16,0.3781597391166016,44.33280178891721,101315.25547675311
0.05,0.028402668482054656,0.004447739189660666,0.8232581471610615,0.049471380061795175,0.007747011376993202,1.4339397973435761,0.0,0.0,0.0,-0.053897911846684736,0.7171712948364415,0.055812921567253905,0.692564269037406,8.899999999999999,-87.99999999999986,180.0,8.26825392857143,1.256852949677073,1.810531281372438,1.465,0.02351796009419127,2.7111052372941167,8.232581471610615E-4,2.8748807989214862E-5,-1.2738729501097164,-0.19948318047761723,1.4339397973435761,1.3880669572553475,4.163336342344337E-16,-1.3386557798389827,1.9284006779506258,-43.96185187140429,1.2369918961202073E-14,0.006057973092970513,0.002277555488375113,10.218313712465735,0.02816696975085669,-0.3324634629501245,9.354806313172446E-17,456.32999738751175,456.30183041776087,-9.354806313172446E-17,0.3324634629501245,1.9425176412371017,0.3041901448448848,45.345536390893,45.38653218615764,-1.1102230246251565E-16,0.38245669482480316,45.388143573058144,101315.11024528963
0.06,0.028975909659295886,0.0045375063624442345,0.8398736799498275,0.065165600589477,0.010204660725548273,1.888840537424382,0.0,0.0,0.0,-0.053897911846684736,0.7171712948364415,0.055812921567253905,0.692564269037406,8.899999999999999,-87.99999999999986,180.0,8.266996714285714,1.256739151297505,1.8102808419204834,1.465,0.023517481202276435,2.7104753377584574,8.398736799498275E-4,2.9329035179713953E-5,-1.2640679385039943,-0.1979477566352624,1.888840537424382,1.8430369442897256,4.440892098500626E-16,-1.3446131284914222,2.281396423975522,-36.11313860884292,1.1153010140766812E-14,0.007166892891483229,0.0031876838027337534,10.223900279945756,0.03942270285188744,-0.38224291957625545,1.180500871011633E-16,456.509469876308,456.4700471734561,-1.180500871011633E-16,0.38224291957625545,1.9494599814050682,0.3052772863031789,45.374049229180976,45.41527289205746,-2.220446049250313E-16,0.388484276029079,45.41693441760211,101314.9106518842
0.07,0.029705543593594053,0.004651763987418264,0.8610222942511799,0.08072890744335272,0.012641809539872989,2.339946713321764,0.0,0.0,0.0,-0.053897911846684736,0.7171712948364415,0.055812921567253905,0.692564269037406,8.899999999999999,-87.99999999999986,180.0,8.2657395,1.2566254444730487,1.8100308259386213,1.465,0.02351700232876445,2.709846633044041,8.6102229425118E-4,3.006756106480135E-5,-1.255870872561917,-0.19666413036423636,2.339946713321764,2.2941578783080865,4.718447854656915E-16,-1.3520645987909077,2.6629380484545035,-30.513020434109333,1.0152213194794411E-14,0.008365489124033782,0.0043430513764947535,10.229482352820392,0.05371135736210718,-0.44002681792755616,1.4640458412415218E-16,457.3951949762536,457.3414836188915,-1.4640458412415218E-16,0.44002681792755616,1.9602939552156704,0.30697384132678934,45.48756157234151,45.529098794655596,-2.220446049250313E-16,0.39548207818344694,45.53081641182897,101314.65660548526
0.08,0.030596129920548658,0.004791226084462936,0.8868361521948046,0.0975904917925263,0.015282263184465295,2.8286837733015746,0.0,0.0,0.0,-0.053897911846684736,0.7171712948364415,0.055812921567253905,0.692564269037406,8.899999999999999,-87.99999999999986,180.0,8.264482285714285,1.2565118292454889,1.809781235065853,1.465,0.023516523473649825,2.709219121749802,8.868361521948046E-4,3.096900084774339E-5,-1.2478121387415293,-0.1954021663253775,2.8286837733015746,2.782881886134827,4.440892098500626E-16,-1.3609693006668668,3.0978490972826602,-26.060960305269735,8.21358195724486E-15,0.009731744066995575,0.005877495181270918,10.235059929038352,0.07268812102565891,-0.5086062299138194,1.602964320742148E-16,485.9578781278237,485.88519000679804,-1.602964320742148E-16,0.5086062299138194,2.087869280688123,0.32695160415904045,48.94735993394887,48.99129611499316,-2.220446049250313E-16,0.40378826295668335,48.99296010640964,101314.34651884186
0.09,0.03165543675037831,0.004957109107175584,0.9175404143155139,0.11410305571605117,0.01786806168895587,3.3073043926686845,0.0,0.0,0.0,-0.053897911846684736,0.7171712948364415,0.055812921567253905,0.692564269037406,8.899999999999999,-87.99999999999986,180.0,8.263225071428572,1.2563983056566326,1.8095320709496503,1.465,0.02351604463692709,2.70859280247426,9.17540414315514E-4,3.204121730767489E-5,-1.2415142985174825,-0.1944159508649389,3.3073043926686845,3.261433412775587,4.440892098500626E-16,-1.37130221146567,3.5379962777170424,-22.804804831330028,7.191764901495778E-15,0.011114449681015149,0.007666289718189469,10.240633006547252,0.09481048944612225,-0.580511151153474,1.8307105685275774E-16,465.1842121814811,465.089401692035,-1.8307105685275774E-16,0.580511151153474,2.010005799854712,0.3147585084516789,46.44086129794058,46.48357385739426,-2.220446049250313E-16,0.41249942159943576,46.48540409987469,101313.97768766276
0.1,0.032875768190083005,0.005148207910873515,0.9529120133118701,0.1298499691662784,0.020333962528978056,3.7637324497271414,0.0,0.0,0.0,-0.053897911846684736,0.7171712948364415,0.055812921567253905,0.692564269037406,8.899999999999999,-87.99999999999986,180.0,8.261967857142858,1.2562848737483137,1.8092833352460058,1.465,0.023515565818590763,2.7079676738155154,9.529120133118701E-4,3.327642076278118E-5,-1.2372104133988897,-0.19374198044128463,3.7637324497271414,3.717735460127428,4.440892098500626E-16,-1.3828776387114408,3.9665989859244695,-20.40357710440742,6.414673513001458E-15,0.012460890705701437,0.009636195504181011,10.246201583293393,0.11917269575427554,-0.6528462219992706,2.0524809678677252E-16,452.7644686934826,452.64529599772834,-2.0524809678677252E-16,0.6528462219992706,1.967023732555691,0.30802769633452604,44.94384101379985,44.98594718410792,-1.6653345369377348E-16,0.42126529469642926,44.98791958403793,101313.55279202467
0.11,0.03425001554472895,0.005363409303637302,0.9927449019589926,0.14485868758166584,0.022684265111458206,4.198763746935034,0.0,0.0,0.0,-0.053897911846684736,0.7171712948364415,0.055812921567253905,0.692564269037406,8.899999999999999,-87.99999999999986,180.0,8.260710642857143,1.2561715335623918,1.809035029619494,1.465,0.02351508701863536,2.707343734371255,9.927449019589926E-4,3.46674158854178E-5,-1.2346990757191623,-0.1933487154555086,4.198763746935034,4.1525904605550785,4.440892098500626E-16,-1.3955196175020035,4.380808434059401,-18.575438299051854,5.8081602596191325E-15,0.013762117955554215,0.011753734431390099,10.251765657221814,0.14536070970756565,-0.7249597965154135,2.266801252359856E-16,436.29179787681016,436.1464371671026,-2.266801252359856E-16,0.7249597965154135,1.9070780121506652,0.2986404470320061,42.95581704086857,42.99701669035187,-2.220446049250313E-16,0.430007022278341,42.99916685599392,101313.07430759589
0.12,0.03577210967948837,0.005601762884315804,1.0368631649306033,0.159585290585609,0.024990389599465264,4.625617861387795,0.0,0.0,0.0,-0.053897911846684736,0.7171712948364415,0.055812921567253905,0.692564269037406,8.899999999999999,-87.99999999999986,180.0,8.25945342857143,1.2560582851407511,1.8087871557433226,1.465,0.023514608237055402,2.7067209827387484,0.0010368631649306033,3.620805957702572E-5,-1.2333671390740957,-0.1931401397430487,4.625617861387795,4.579231597426353,4.440892098500626E-16,-1.4090692637516693,4.7911207679328625,-17.10358536780456,5.310748504193139E-15,0.015051104752775796,0.014058524606206503,10.257325226276336,0.17386449609936977,-0.798409846073775,2.4791023663090866E-16,433.18080474488073,433.00694024878135,-2.4791023663090866E-16,0.798409846073775,1.9030428104090529,0.29800855130236037,42.583660096833796,42.62494391152842,-2.7755575615628914E-16,0.4389132222089107,42.627203617849176,101312.54434812699
0.13,0.03744058145871031,0.0058630385924055934,1.0852242189780652,0.1741389630910248,0.027269433894078734,5.047459543931376,0.0,0.0,0.0,-0.053897911846684736,0.7171712948364415,0.055812921567253905,0.692564269037406,8.899999999999999,-87.99999999999986,180.0,8.258196214285714,1.2559451285253018,1.8085397152993905,1.465,0.023514129473845406,2.706099417514845,0.0010852242189780651,3.7896864797795086E-5,-1.2329963032273363,-0.1930820683991676,5.047459543931376,5.000829405121347,4.718447854656915E-16,-1.423416199643375,5.199462319945545,-15.888262442597222,5.199521244481878E-15,0.01633390277725952,0.016556950990692917,10.262880288399522,0.20476301899190213,-0.8734855949283675,2.8585296372008537E-16,431.8160173555621,431.6112543365702,-2.8585296372008537E-16,0.8734855949283675,1.9064814426461938,0.2985470267406673,42.422415595132485,42.46391910465881,-2.7755575615628914E-16,0.44801899230089726,42.466282469089165,101311.96342579146
0.14,0.039255327587214166,0.006147220252313053,1.1378250700658332,0.18880868988000088,0.029566651804507404,5.472665087673926,0.0,0.0,0.0,-0.053897911846684736,0.7171712948364415,0.055812921567253905,0.692564269037406,8.899999999999999,-87.99999999999986,180.0,8.256939,1.2558320637579798,1.808292709978344,1.465,0.023513650728999892,2.705479037295979,0.0011378250700658332,3.9733726993700774E-5,-1.2332052454386768,-0.19311478787629488,5.472665087673926,5.4257685442909445,4.163336342344337E-16,-1.438467018844001,5.6132122408224525,-14.848525535969728,4.2496451385706456E-15,0.017633693549594424,0.019296752504786543,10.268430841532657,0.2386466748521963,-0.9514074240429836,2.7229262087942633E-16,432.6834447986761,432.4447981238239,-2.7229262087942633E-16,0.9514074240429836,1.9195702649349398,0.300596681612953,42.530928088812956,42.57282785564908,-1.6653345369377348E-16,0.45747222436693624,42.57528570030738,101311.33157726617
0.15,0.04121736637012057,0.006454467326364583,1.194695234011669,0.20362705313898152,0.03188714556498762,5.902178895091553,0.0,0.0,0.0,-0.053897911846684736,0.7171712948364415,0.055812921567253905,0.692564269037406,8.899999999999999,-87.99999999999986,180.0,8.255681785714286,1.255719090880746,1.8080461414796332,1.465,0.023513172002513377,2.7048598406781657,0.001194695234011669,4.171967687981121E-5,-1.233882971115086,-0.19322091688500792,5.902178895091553,5.854996762969937,4.718447854656915E-16,-1.454142401694336,6.0328697332856285,-13.947729330332384,4.4812362917898135E-15,0.01895204555223805,0.022289833468987073,10.273976883615807,0.27566268671702604,-1.0323080493649313,3.3166805761426683E-16,442.02091947239694,441.74525678567994,-3.3166805761426683E-16,1.0323080493649313,1.9683808328695755,0.30824021257236406,43.6644226826848,43.70735617938517,-2.220446049250313E-16,0.46728915285365713,43.70985407598627,101310.64844878
0.16,0.04332886661608912,0.006785119440932836,1.2558975742539065,0.21871425595065938,0.0342497384759409,6.339485081319536,0.0,0.0,0.0,-0.053897911846684736,0.7171712948364415,0.055812921567253905,0.692564269037406,8.899999999999999,-87.99999999999986,180.0,8.25442457142857,1.2556062099355874,1.80780001151157,1.465,0.023512693294380386,2.704241826257002,0.0012558975742539065,4.385690969576592E-5,-1.2348440513033836,-0.19337141802614538,6.339485081319536,6.2920026041077435,4.996003610813204E-16,-1.4703763676430355,6.461524853517299,-13.15338625953123,4.430067636061135E-15,0.020298666369273743,0.02556974604148195,10.279518412587763,0.3162260006237395,-1.116768016135139,3.7612807437199036E-16,445.5578409860411,445.2416149854174,-3.7612807437199036E-16,1.116768016135139,1.9933878931963203,0.312156213715135,44.095525640498124,44.13907989063389,-2.220446049250313E-16,0.47754027533662624,44.14166306683891,101309.91328606204
0.17,0.04559152841274429,0.0071394428226351486,1.3214813682394395,0.23380342399604817,0.03661263913428061,6.776848230317218,0.0,0.0,0.0,-0.053897911846684736,0.7171712948364415,0.055812921567253905,0.692564269037406,8.899999999999999,-87.99999999999986,180.0,8.253167357142857,1.255493420964516,1.807554321791385,1.465,0.023512214604595436,2.703624992627667,0.0013214813682394396,4.614714624792899E-5,-1.2362905073223815,-0.19359792699398698,6.776848230317218,6.729048227505012,4.718447854656915E-16,-1.4871033133232778,6.89141250489226,-12.461925039885863,3.922956980625926E-15,0.021649162492413134,0.02908507145083831,10.285055426386057,0.3597007106692892,-1.2035225964700063,3.788634064200962E-16,437.7545670036145,437.3948662929452,-3.788634064200962E-16,1.2035225964700063,1.9712889263916555,0.3086956078650115,43.153193106215056,43.19654075801793,-2.220446049250313E-16,0.488072548717825,43.1992980067028,101309.1254981172
0.18,0.048004490838847134,0.007517302654803283,1.3914216619600033,0.24875459859590304,0.03895393059572372,7.210211606252648,0.0,0.0,0.0,-0.053897911846684736,0.7171712948364415,0.055812921567253905,0.692564269037406,8.899999999999999,-87.99999999999986,180.0,8.251910142857144,1.2553807240095698,1.8073090740452877,1.465,0.023511735933153043,2.70300933838492,0.0013914216619600034,4.8589515123129914E-5,-1.238284388546471,-0.1939101604612583,7.210211606252648,7.162077176701152,4.440892098500626E-16,-1.5042444279986076,7.3183400292818055,-11.861374497856575,3.4768044870696117E-15,0.022990363033209994,0.03280015482852056,10.290587922946996,0.40564586619028253,-1.2918434598317672,3.7866498006164964E-16,434.4529838416593,434.047337975469,-3.7866498006164964E-16,1.2918434598317672,1.9681699159313968,0.3082071838612663,42.75546848857314,42.79894824500822,-2.220446049250313E-16,0.49879783944992506,42.80185475144193,101308.28538568587
0.19,0.05056599968305951,0.007918424235272527,1.4656676091799035,0.2635034353734607,0.04126353679976397,7.637710171957651,0.0,0.0,0.0,-0.053897911846684736,0.7171712948364415,0.055812921567253905,0.692564269037406,8.899999999999999,-87.99999999999986,180.0,8.250652928571428,1.2552681191128128,1.807064270008523,1.465,0.02351125728004773,2.702394862123101,0.0014656676091799035,5.1182240731692534E-5,-1.2408137124250345,-0.19430624201060778,7.637710171957651,7.589225973939592,4.440892098500626E-16,-1.5217225016185743,7.74028360303753,-11.338076049874946,3.2872745698520577E-15,0.024315910384362177,0.0366911544632182,10.296115900205564,0.45376661212623054,-1.3813372439279703,4.0049429677304283E-16,433.55135333039357,433.09758671826734,-4.0049429677304283E-16,1.3813372439279703,1.975210577738925,0.3093097220774299,42.64805732178489,42.691851220256616,-2.7755575615628914E-16,0.5096685592685135,42.69489340252337,101307.39356057646
0.2,0.053274866557810635,0.008342621467515564,1.544184764200834,0.27822595374321935,0.043569021651127395,8.06444589231048,0.0,0.0,0.0,-0.053897911846684736,0.7171712948364415,0.055812921567253905,0.692564269037406,8.899999999999999,-87.99999999999986,180.0,8.249395714285715,1.255155606316334,1.8068199114254315,1.465,0.02351077864527401,2.701781562436131,0.001544184764200834,5.392412020332628E-5,-1.2436378929107614,-0.19474849687243462,8.06444589231048,8.015601974776368,4.996003610813204E-16,-1.539472220497066,8.162098365966989,-10.8718112195489,3.5070628715438616E-15,0.02564105702787089,0.04079885779487604,10.301639356095535,0.5045673746450157,-1.4728173325248366,4.751060222767964E-16,429.74228485469064,429.2377174800456,-4.751060222767964E-16,1.4728173325248366,1.970327949232697,0.30854512285783803,42.188052509658974,42.23195415269839,-2.220446049250313E-16,0.5207833738617478,42.235165050915924,101306.4504376478
0.21,0.05612913606100568,0.008789588143735963,1.6269164492248427,0.29260968525782055,0.045821453896761975,8.481361794541796,0.0,0.0,0.0,-0.053897911846684736,0.7171712948364415,0.055812921567253905,0.692564269037406,8.899999999999999,-87.99999999999986,180.0,8.2481385,1.2550431856622482,1.80657600004951,1.465,0.02351030002882641,2.701169437917511,0.0016269164492248428,5.6813174305713566E-5,-1.2470072732031507,-0.19527612774559702,8.481361794541796,8.432144880378733,4.440892098500626E-16,-1.557430740580403,8.574768672996496,-10.464686574197758,2.967361385717295E-15,0.02693748067577965,0.04502831873889684,10.307158288549433,0.5568739371330522,-1.564627416921148,4.4366498194546607E-16,422.3146856253034,421.75781168817036,-4.4366498194546607E-16,1.564627416921148,1.9503506679288094,0.30541676409062163,41.289282103958705,41.33302555993532,-2.220446049250313E-16,0.5319415848525315,41.33644836930191,101305.45669885133
0.22,0.059126318147340734,0.009258934333245018,1.713790489692537,0.30678355336930346,0.04804102241048648,8.892194755780535,0.0,0.0,0.0,-0.053897911846684736,0.7171712948364415,0.055812921567253905,0.692564269037406,8.899999999999999,-87.99999999999986,180.0,8.246881285714286,1.254930857192696,1.8063325376434696,1.465,0.02350982143069945,2.7005584871603205,0.001713790489692537,5.98468826477027E-5,-1.250735028975607,-0.1958598787212884,8.892194755780535,8.842595891005294,4.718447854656915E-16,-1.5755394910653453,8.981860986428712,-10.102720970132589,3.00992353737031E-15,0.028216385410604505,0.04940489064341378,10.31267269549848,0.610999849356129,-1.657323466336234,4.937696413777241E-16,415.13942340131865,414.52842355196253,-4.937696413777241E-16,1.657323466336234,1.9315207545600268,0.302468078347197,40.42059268635256,40.46420016129801,-2.220446049250313E-16,0.5432106277890885,40.46784615567937,101304.41321231748
0.23,0.062263957664708394,0.009750275569482785,1.8047357224321814,0.32067539297510433,0.05021642643881709,9.294853053248469,0.0,0.0,0.0,-0.053897911846684736,0.7171712948364415,0.055812921567253905,0.692564269037406,8.899999999999999,-87.99999999999986,180.0,8.245624071428571,1.2548186209498438,1.806089525979298,1.465,0.023509342850887637,2.69994870875722,0.0018047357224321814,6.302276015657718E-5,-1.254842840966579,-0.19650314491254606,9.294853053248469,9.244863792230811,4.996003610813204E-16,-1.5937474034701125,9.38123325170886,-9.78123561674665,3.0513037428162656E-15,0.029471042110260953,0.05389560612157808,10.318182574872672,0.666537397257278,-1.7504352888001211,5.460567516775548E-16,411.0522673451856,410.3857299479283,-5.460567516775548E-16,1.7504352888001211,1.9256419826277424,0.30154748722996383,39.92575193191087,39.9694531839594,-2.220446049250313E-16,0.5545335301630021,39.973299779487775,101303.32083405995
0.24,0.06553899951620128,0.010263133437040798,1.8996635947283529,0.334282777171859,0.052347285938829,9.68926634257045,0.0,0.0,0.0,-0.053897911846684736,0.7171712948364415,0.055812921567253905,0.692564269037406,8.899999999999999,-87.99999999999986,180.0,8.244366857142857,1.2547064769758833,1.8058469668383201,1.465,0.023508864289385503,2.6993401013004497,0.001899663594728353,6.633771450337384E-5,-1.2592859046401692,-0.19719891011628635,9.68926634257045,9.63887986524384,4.996003610813204E-16,-1.6120066998749927,9.772746321124117,-9.494283480651951,2.9290632533147593E-15,0.03070101372040174,0.05848746320815653,10.323687924600724,0.7233257830147583,-1.8438430847055205,5.688405065316859E-16,405.5214341613826,404.79810837836783,-5.688405065316859E-16,1.8438430847055205,1.9137539368893528,0.2996858689474239,39.25560332784471,39.2992928733331,-2.220446049250313E-16,0.5658957855372342,39.30336701078038,101302.18062899011
0.25,0.0689483995229903,0.010797031230236035,1.99848587032874,0.347576915185087,0.05442909239555507,10.074600116254018,0.0,0.0,0.0,-0.053897911846684736,0.7171712948364415,0.055812921567253905,0.692564269037406,8.899999999999999,-87.99999999999986,180.0,8.243109642857142,1.2545944253130323,1.8056048620112592,1.465,0.02350838574618756,2.6987326633818256,0.00199848587032874,6.978866441026495E-5,-1.2640521575202186,-0.19794528539915182,10.074600116254018,10.023810537016049,4.996003610813204E-16,-1.630276054346254,10.1555195679674,-9.23772065187017,2.818663480641677E-15,0.031903533817437976,0.06315819472376696,10.329188742610102,0.7810896241093311,-1.9372849830945262,5.911149123500054E-16,396.6817384554383,395.90064883132897,-5.911149123500054E-16,1.9372849830945262,1.888021950128867,0.2956563473545935,38.18396693701186,38.22740031683549,-1.6653345369377348E-16,0.5772656434603032,38.23175866484191,101300.99365823522
0.26,0.07248973084992762,0.011351588916826073,2.101132206835461,0.3606632414026976,0.056478356393532055,10.453910415279692,0.0,0.0,0.0,-0.053897911846684736,0.7171712948364415,0.055812921567253905,0.692564269037406,8.899999999999999,-87.99999999999986,180.0,8.241852428571429,1.2544824660035345,1.8053632132983004,1.465,0.023507907221288333,2.6981263935927458,0.002101132206835461,7.337315346658856E-5,-1.2690040052755378,-0.1987207240638844,10.453910415279692,10.402714847364262,4.996003610813204E-16,-1.648522934841426,10.53252600577236,-9.00480750160136,2.7177708478938197E-15,0.03308794217290411,0.06793384773807871,10.334685026826978,0.8401510496953548,-2.0312324489866134,6.130530090920955E-16,390.93588279252026,390.0957317428249,-6.130530090920955E-16,2.0312324489866134,1.8752801474845577,0.29366103430843293,37.486997102142254,37.53040495537252,-1.6653345369377348E-16,0.5887003111876725,37.53502183522267,101299.76076801305
0.27,0.07616148264220793,0.011926569903262263,2.207558811760201,0.37367721471837767,0.05851629022942918,10.831123548117523,0.0,0.0,0.0,-0.053897911846684736,0.7171712948364415,0.055812921567253905,0.692564269037406,8.899999999999999,-87.99999999999986,180.0,8.240595214285714,1.254370599089659,1.8051220225091502,1.465,0.023507428714682334,2.6975212905241834,0.002207558811760201,7.708965240495472E-5,-1.2739827231437735,-0.19950037047600971,10.831123548117523,10.779522319879918,6.106226635438361E-16,-1.6667238062994878,10.907615215585613,-8.789439369005128,3.2074931875216812E-15,0.03426633235046371,0.07285784371124708,10.340176775176294,0.9010470613787069,-2.1263584017023103,7.759630394334961E-16,394.4643530262852,393.5633059649065,-7.759630394334961E-16,2.1263584017023103,1.901472495910594,0.2977626466142392,37.91434523266534,37.95841799674983,-2.220446049250313E-16,0.6002814774545286,37.96316418145564,101298.48248567153
0.28,0.0799639981256113,0.012522027937267428,2.3177756335843824,0.3868541702319095,0.060579746396407994,11.213060758987266,0.0,0.0,0.0,-0.053897911846684736,0.7171712948364415,0.055812921567253905,0.692564269037406,8.899999999999999,-87.99999999999986,180.0,8.239338,1.254258824613701,1.8048812914631038,1.465,0.023506950226364086,2.6969173527666923,0.0023177756335843827,8.093850863398999E-5,-1.278741590038479,-0.20024558914443635,11.213060758987266,11.16105875884114,5.551115123125783E-16,-1.6848671509948483,11.287515667090169,-8.584520095370275,2.817763248592184E-15,0.03545984205619234,0.07802051850535476,10.345663985581695,0.9648948602584114,-2.2239439260940568,7.299822695105883E-16,401.6902318895047,400.72533702924625,-7.299822695105883E-16,2.2239439260940568,1.9434278376868588,0.30433267780520995,38.78993266017013,38.83495410461967,-2.7755575615628914E-16,0.6121646932754479,38.83977865435911,101297.15869311837
0.29,0.08389947289593325,0.013138306839967754,2.431846312177888,0.4003057058601396,0.06268620066187947,11.602956740231583,0.0,0.0,0.0,-0.053897911846684736,0.7171712948364415,0.055812921567253905,0.692564269037406,8.899999999999999,-87.99999999999986,180.0,8.238080785714287,1.2541471426179807,1.8046410219891047,1.465,0.02350647175632811,2.6963145789104006,0.0024318463121778882,8.492194450692106E-5,-1.2831675203523534,-0.20093867133564536,11.602956740231583,11.550560880831247,5.551115123125783E-16,-1.7029514640240742,11.675422919561024,-8.386955451154723,2.7241451580608785E-15,0.03667851045536752,0.08347426150691524,10.351146655965609,1.0323423560221678,-2.324641040532598,7.550606023458243E-16,406.3785544938907,405.3462121378685,-7.550606023458243E-16,2.324641040532598,1.9751332755231843,0.3092976168734905,39.35749751393725,39.403293201849706,-2.7755575615628914E-16,0.6244292438087164,39.40824059802035,101295.78862744995
0.3,0.087970980075112,0.01377588784941621,2.549859922715978,0.41404081650704255,0.06483706159021631,12.001072211296066,0.0,0.0,0.0,-0.053897911846684736,0.7171712948364415,0.055812921567253905,0.692564269037406,8.899999999999999,-87.99999999999986,180.0,8.236823571428571,1.254035553144846,1.8044012159258116,1.465,0.02350599330456892,2.6957129675450164,0.002549859922715978,8.904307059741059E-5,-1.2872540483822192,-0.20157860454753934,12.001072211296066,11.948289474872343,5.273559366969494E-16,-1.7209793038514958,12.071594390950617,-8.19626284089112,2.50300569215232E-15,0.03792314656760137,0.08923427344753765,10.3566247842491,1.1035775390612574,-2.4285471969868078,7.416389122359639E-16,409.6604747359078,408.5568971968466,-7.416389122359639E-16,2.4285471969868078,2.001330015271935,0.31339991684208246,39.754120768502105,39.80060023915571,-2.220446049250313E-16,0.6370871349142604,39.805698830877915,101294.37122035674
0.31,0.09218112972626481,0.014435179690589503,2.671892118503101,0.42805171675126247,0.06703111001696946,12.40718150987844,0.0,0.0,0.0,-0.053897911846684736,0.7171712948364415,0.055812921567253905,0.692564269037406,8.899999999999999,-87.99999999999986,180.0,8.235566357142858,1.2539240562366685,1.8041618751216606,1.465,0.023505514871081046,2.695112517259824,0.002671892118503101,9.330452877706456E-5,-1.2910092494112189,-0.2021666533357118,12.40718150987844,12.354018730871667,5.551115123125783E-16,-1.738950963692678,12.475805755816161,-8.012310409317243,2.5493781674027405E-15,0.0391930460155981,0.09530913828455442,10.362098368352067,1.1787065688382095,-2.535661567909237,8.068035199476081E-16,422.77584716725755,421.59714059841934,-8.068035199476081E-16,2.535661567909237,2.069072147612492,0.3240080516725348,41.343674227478274,41.39157836321476,-3.3306690738754696E-16,0.6501384462377784,41.396683917886776,101292.90556483288
0.32,0.09653303775632391,0.015116670301491865,2.798033214847814,0.4423290940210206,0.06926688763231555,12.821014708855746,0.0,0.0,0.0,-0.053897911846684736,0.7171712948364415,0.055812921567253905,0.692564269037406,8.899999999999999,-87.99999999999986,180.0,8.234309142857143,1.253812651935847,1.8039230014349328,1.465,0.023505036455858993,2.6945132266436835,0.002798033214847814,9.770947292595465E-5,-1.294444739234081,-0.20270463668507482,12.821014708855746,12.767478475812807,5.273559366969494E-16,-1.7568687734194808,12.887788581341633,-7.834980402355481,2.344488294729457E-15,0.040487365873504697,0.10170654014746316,10.367567406193082,1.2578244764704765,-2.6459752302292485,7.917643231821698E-16,424.7216281884817,423.4638037120112,-7.917643231821698E-16,2.6459752302292485,2.090431752334081,0.32735287651023964,41.57757195589678,41.626088131481914,-3.3306690738754696E-16,0.6635822743266402,41.63137704381997,101291.39057787653
0.33,0.10102777322324268,0.01582052709213121,2.9283141986508885,0.45664187956152025,0.07150821003488875,13.23587422503924,0.0,0.0,0.0,-0.053897911846684736,0.7171712948364415,0.055812921567253905,0.692564269037406,8.899999999999999,-87.99999999999986,180.0,8.233051928571427,1.2537013402848063,1.8036845967338182,1.465,0.023504558058897288,2.693915094285031,0.0029283141986508887,1.0225898513049994E-4,-1.2977857038338452,-0.20322781777952123,13.23587422503924,13.181967251841176,5.273559366969494E-16,-1.7747267821948949,13.300899059088188,-7.667791250209772,2.2716712110718587E-15,0.04178523472866939,0.10832997363647787,10.373031895689437,1.3397377609915873,-2.7581501033833598,8.171336413858994E-16,424.29185680235685,422.9521190413653,-8.171336413858994E-16,2.7581501033833598,2.1020607755246092,0.3291739329442386,41.522831192538426,41.571791507777625,-2.7755575615628914E-16,0.6772562735321423,41.57730781599707,101289.8258891328
0.34,0.1056656643689052,0.016546801463814865,3.062744584081934,0.4709544178873285,0.07374949372467438,13.650726575645706,0.0,0.0,0.0,-0.053897911846684736,0.7171712948364415,0.055812921567253905,0.692564269037406,8.899999999999999,-87.99999999999986,180.0,8.231794714285714,1.2535901213259955,1.803446662896482,1.465,0.02350407968019045,2.6933181187718804,0.003062744584081934,1.0695339763282431E-4,-1.301059988632986,-0.20374055709584465,13.650726575645706,13.596451222109025,5.273559366969494E-16,-1.7925170895914344,13.714102353113285,-7.5103981065465,2.203226189794634E-15,0.043083401833493094,0.11516375308649149,10.378491834757222,1.4242524347437893,-2.8719557700655183,8.425076911734798E-16,421.8076718400727,420.38341940532894,-8.425076911734798E-16,2.8719557700655183,2.105273040845718,0.32967696026948123,41.21833245896865,41.26759173927822,-2.7755575615628914E-16,0.6911325581747347,41.273378734636125,101288.2113862093
0.35000000000000003,0.11044713818938795,0.017295560282343997,3.2013367477244747,0.4853398829415326,0.07600219743536633,14.06769272493752,0.0,0.0,0.0,-0.053897911846684736,0.7171712948364415,0.055812921567253905,0.692564269037406,8.899999999999999,-87.99999999999986,180.0,8.2305375,1.2534789951018919,1.8032092018111319,1.465,0.023503601319732996,2.692722298691819,0.0032013367477244747,1.1179314263274808E-4,-1.3041880768006573,-0.20423040263063497,14.06769272493752,14.013052867761724,4.996003610813204E-16,-1.810233279332424,14.129493805522111,-7.36081459071876,2.025903583466266E-15,0.044388450017840815,0.12224425682348071,10.383947221311155,1.5118183955287394,-2.9878123787304722,8.223301552014604E-16,423.59149134234104,422.0796729468123,-8.223301552014604E-16,2.9878123787304722,2.1265990320318244,0.33301652136800025,41.43160282254638,41.48148552094609,-2.220446049250313E-16,0.7052622684617136,41.487480471725156,101286.5469224024
0.36,0.11537227867971997,0.018066816700989124,3.3440931241945404,0.4996832517477182,0.07824830904953863,14.48343870440029,0.0,0.0,0.0,-0.053897911846684736,0.7171712948364415,0.055812921567253905,0.692564269037406,8.899999999999999,-87.99999999999986,180.0,8.229280285714285,1.2533679616549975,1.8029722153760843,1.465,0.02350312297751945,2.6921276326320105,0.0033440931241945403,1.167783051489364E-4,-1.3072783896405737,-0.20471433270696188,14.48343870440029,14.428436421286229,5.273559366969494E-16,-1.8278686733620357,14.543757473574608,-7.2200632769298245,2.0775421708456895E-15,0.04568996232537196,0.1295157404793244,10.38939805326473,1.6017462419515376,-3.10500665761977,8.934523181498695E-16,428.2928123167196,426.69106607476806,-8.934523181498695E-16,3.10500665761977,2.1603059796294826,0.33829488850060496,41.99895681609155,42.04968458936093,-2.7755575615628914E-16,0.7195588456779591,42.05584072393669,101284.83247047514
0.37,0.12044086615447931,0.018860536317931248,3.4910073458575708,0.5140358096878161,0.08049585964368024,14.899451033109914,0.0,0.0,0.0,-0.053897911846684736,0.7171712948364415,0.055812921567253905,0.692564269037406,8.899999999999999,-87.99999999999986,180.0,8.228023071428572,1.2532570210278395,1.802735705499834,1.465,0.023502644653544322,2.691534119179193,0.003491007345857571,1.2190866281869064E-4,-1.3102730006497758,-0.20518327627653643,14.899451033109914,14.844089542454018,5.273559366969494E-16,-1.8454165537196858,14.958360759158584,-7.086648913846617,2.019958601105636E-15,0.04699254886957581,0.13700334965546926,10.394844328530219,1.6943469545344725,-3.2238222037841227,9.189092712417683E-16,427.0903564414152,425.39600948688076,-9.189092712417683E-16,3.2238222037841227,2.1694669655501966,0.33972946061206816,41.84906907109818,41.900211762039035,-2.7755575615628914E-16,0.7340568335307531,41.90664130109412,101283.06810896177
0.38,0.12565272483118187,0.019676691606367938,3.642074317616172,0.5282992256726381,0.08272945098014949,15.312879560900223,0.0,0.0,0.0,-0.053897911846684736,0.7171712948364415,0.055812921567253905,0.692564269037406,8.899999999999999,-87.99999999999986,180.0,8.226765857142857,1.2531461732629734,1.8024996741011199,1.465,0.02350216634780214,2.6909417569196807,0.003642074317616172,1.2718403771728908E-4,-1.313264742583994,-0.20565177056095835,15.312879560900223,15.257160538033736,4.996003610813204E-16,-1.8628713584547194,15.3704664009094,-6.961253497808328,1.862337250317794E-15,0.04828729642607032,0.1446541747231626,10.400286045018492,1.7889661896533324,-3.343623740029375,8.945163459517874E-16,416.8745260988593,415.085559909206,-8.945163459517874E-16,3.343623740029375,2.140964560563977,0.3352661031026536,40.60393777583299,40.6548321250137,-2.220446049250313E-16,0.7486791035895559,40.66172519105895,101281.25390116988
0.39,0.13100647437097424,0.02051506641100319,3.7972540300181463,0.5424632926408228,0.08494748467579243,15.723428433653517,0.0,0.0,0.0,-0.053897911846684736,0.7171712948364415,0.055812921567253905,0.692564269037406,8.899999999999999,-87.99999999999986,180.0,8.225508642857143,1.2530354184029784,1.8022641231089955,1.465,0.02350168806028742,2.690350544439359,0.0037972540300181463,1.3260303268387418E-4,-1.3162553899486598,-0.20612009344036258,15.723428433653517,15.667353671449947,5.273559366969494E-16,-1.8802245574442682,15.77977235110547,-6.843285758116012,1.914810226763927E-15,0.04957325622744809,0.15245858209693489,10.40572320063926,1.8854848068911667,-3.4643002955421895,9.693410254888592E-16,421.435390255112,419.54990544822084,-9.693410254888592E-16,3.4643002955421895,2.174490771211491,0.34051616758416464,41.15354454761115,41.20528839829069,-2.220446049250313E-16,0.7634122217880914,41.21235967773121,101279.39032975103
0.4,0.13650228494013306,0.02137568737916479,3.9565514153737693,0.5566792816439982,0.08717364914513293,16.13548227902408,0.0,0.0,0.0,-0.053897911846684736,0.7171712948364415,0.055812921567253905,0.692564269037406,8.899999999999999,-87.99999999999986,180.0,8.224251428571428,1.252924756490461,1.8020290544628987,1.465,0.023501209790994678,2.6897604803236908,0.003956551415373769,1.38165819958516E-4,-1.3190912128546897,-0.20656417145655526,16.13548227902408,16.079056329839695,6.38378239159465E-16,-1.8974736634014653,16.19062873274105,-6.730291612927248,2.2591079963970065E-15,0.050864094671838354,0.16049858028458214,10.411155793300884,1.984917021344027,-3.586774356549684,1.2039464403874278E-15,423.17913632599607,421.19421930465205,-1.2039464403874278E-15,3.586774356549684,2.1964203466710694,0.3439502474575334,41.36062841598908,41.41302077490559,-2.7755575615628914E-16,0.7783684055496785,41.42033494646706,101277.47733768838
0.41000000000000003,0.1421401106323316,0.022258547322113822,4.119965143077167,0.5708828294197081,0.08939786537024418,16.547175512437427,0.0,0.0,0.0,-0.053897911846684736,0.7171712948364415,0.055812921567253905,0.692564269037406,8.899999999999999,-87.99999999999986,180.0,8.222994214285714,1.2528141875680536,1.8017944701127198,1.465,0.02350073153991844,2.6891715631577098,0.004119965143077167,1.4387235307543363E-4,-1.3218339825983236,-0.20699367773638538,16.547175512437427,16.490401883032767,6.106226635438361E-16,-1.9146160543703492,16.601177937109863,-6.6226669567352445,2.1074469310934627E-15,0.0521539761622969,0.16873872447595495,10.416583820910478,2.0868244801812574,-3.710621499537037,1.1807838054872866E-15,422.41400010644537,420.32717562626414,-1.1807838054872866E-15,3.710621499537037,2.207991287674369,0.3457622084637375,41.262549136042836,41.3154099835244,-2.7755575615628914E-16,0.7934961429581817,41.32302915125653,101275.51494323679
0.42,0.1479199524063321,0.02316364638998846,4.287495240918296,0.5851078321756492,0.09162544135559937,16.959490623590312,0.0,0.0,0.0,-0.053897911846684736,0.7171712948364415,0.055812921567253905,0.692564269037406,8.899999999999999,-87.99999999999986,180.0,8.221737,1.252703711678414,1.801560372018874,1.465,0.02350025330705322,2.6885837915260247,0.004287495240918296,1.4972263300507368E-4,-1.3244478671119024,-0.20740300112779975,16.959490623590312,16.90237348798081,6.38378239159465E-16,-1.9316497720925374,17.012392552760524,-6.519634262086144,2.1499844142084154E-15,0.053445956372277774,0.17719879232110106,10.422007281373883,2.1914517774307454,-3.836038613677116,1.2650131740777215E-15,421.3119686959054,419.12051691847466,-1.2650131740777215E-15,3.836038613677116,2.218330071620847,0.34738121882402245,41.12315140394465,41.176462384359304,-2.7755575615628914E-16,0.8088194601060916,41.184405342430324,101273.50314839647
0.43,0.15384268906598705,0.024091122199799468,4.4591671812372535,0.5994431498161298,0.09387029219086805,17.375003238087217,0.0,0.0,0.0,-0.053897911846684736,0.7171712948364415,0.055812921567253905,0.692564269037406,8.899999999999999,-87.99999999999986,180.0,8.220479785714286,1.2525933288642275,1.8013267621523725,1.465,0.023499775092393538,2.687997164012817,0.0044591671812372535,1.5571754926115312E-4,-1.3268449546562913,-0.20777837501983248,17.375003238087217,17.317548306752446,5.828670879282072E-16,-1.9485757757037292,17.426830661665473,-6.419935442315145,1.9163452496746364E-15,0.05474807200068779,0.185934350411299,10.427426172595613,2.299486115886754,-3.9635949902923837,1.183129721401354E-15,424.4879772785954,422.18849116270866,-1.183129721401354E-15,3.9635949902923837,2.2468581314773237,0.35184859377890765,41.50338318387679,41.55747028572101,-3.3306690738754696E-16,0.824407699534653,41.56564668814425,101271.44164968174
0.44,0.15990921471904038,0.025041114765083076,4.635006879961098,0.6138721035330773,0.09612980604440671,17.793229916682296,0.0,0.0,0.0,-0.053897911846684736,0.7171712948364415,0.055812921567253905,0.692564269037406,8.899999999999999,-87.99999999999986,180.0,8.21922257142857,1.2524830391682038,1.8010936424948916,1.465,0.023499296895933913,2.687411679201839,0.0046350068799610985,1.6185800684778687E-4,-1.3290430107225073,-0.20812258141413512,17.793229916682296,17.735442567037328,6.106226635438361E-16,-1.965395164460083,17.844010233161228,-6.323566532195179,1.960663608625413E-15,0.05605880899281678,0.1949397494389688,10.432840492478954,2.410857629468509,-4.093185951178363,1.2691193643575482E-15,428.66038984019144,426.2495322107229,-1.2691193643575482E-15,4.093185951178363,2.2798052035792877,0.3570079675844029,42.00447153015425,42.05941723165084,-2.7755575615628914E-16,0.8402482470297432,42.0678094863843,101269.33013835968
0.45,0.1661430082816594,0.02601730078599281,4.815694879097125,0.6339293814662755,0.0992706919494676,18.37459492042524,0.0,0.0,-3.8237338920989774E-19,-0.053897911846684736,0.7171712948364415,0.055812921567253905,0.692564269037406,8.899999999999999,-87.99999999999986,180.0,8.217965357142857,1.2523728426330796,1.8008610150388473,1.465,0.023498818717668866,2.6868273356764187,0.004815694879097125,1.6816777081554113E-4,-1.3255677052300192,-0.2075783630972981,18.37459492042524,18.316576183441747,5.828670879282072E-16,-1.9821689947798231,18.423516412663787,-6.176354577189237,1.8126737267382685E-15,0.057879522576774624,0.20780356453487409,10.438250238925896,2.569946921710289,-4.261712931621652,1.2507531692856376E-15,430.5748121477419,428.0048652260316,-1.2507531692856376E-15,4.261712931621652,2.30776654412108,0.3613865966629261,42.22514956402534,42.280948563529236,-3.3306690738754696E-16,0.8608315554833215,42.289710833708966,101267.16044512624
0.46,0.17258879538988053,0.027026684110223707,5.002527561915697,0.655234807380391,0.10260703261233506,18.992137792272434,0.0,0.0,-8.395511041390008E-19,-0.053897911846684736,0.7171712948364415,0.055812921567253905,0.692564269037406,8.899999999999999,-87.99999999999986,180.0,8.216708142857144,1.2522627393016184,1.8006288817874687,1.465,0.023498340557592916,2.686244132019453,0.005002527561915697,1.7469211186577335E-4,-1.3209068476225516,-0.20684849227367252,18.992137792272434,18.933907508776457,5.828670879282072E-16,-1.9990061452164984,19.039140713790495,-6.026852966755828,1.7540615229119846E-15,0.05981371873447917,0.22191917961929425,10.4436554098371,2.744517466808734,-4.441037227533476,1.2925240694613058E-15,429.5072527202329,426.7627352534241,-1.2925240694613058E-15,4.441037227533476,2.3244558147144567,0.3640000666934591,42.0812705575057,42.13774674956207,-3.3306690738754696E-16,0.8827352303377922,42.146991857273854,101264.91700652476
0.47000000000000003,0.17924757420504722,0.02806942104567086,5.195533860362374,0.6764800753771825,0.10593395279674926,19.607936972480783,0.0,0.0,-1.2843651634749401E-18,-0.053897911846684736,0.7171712948364415,0.055812921567253905,0.692564269037406,8.899999999999999,-87.99999999999986,180.0,8.215450928571428,1.2521527292166086,1.8003972447548693,1.465,0.023497862415700583,2.6856620668134124,0.005195533860362375,1.8143204032428523E-4,-1.3163559212931766,-0.2061358362287939,19.607936972480783,19.549492321380402,5.828670879282072E-16,-2.0158936449051073,19.65315438323528,-5.887385811945264,1.6992602563512425E-15,0.06174286912031219,0.23645942770939626,10.449056003112004,2.924339530514434,-4.6225126692260226,1.334183339464301E-15,424.0226231529648,421.09828362245037,-1.334183339464301E-15,4.6225126692260226,2.3228487494625134,0.3637484069909234,41.39937307448379,41.45620789078438,-2.220446049250313E-16,0.9049074498690075,41.466082889233235,101262.59947914066
0.48,0.18611767566584844,0.02914525022430796,5.394665396295388,0.6974979322100265,0.1092252613432396,20.21714458564699,0.0,0.0,-1.7246254152919682E-18,-0.053897911846684736,0.7171712948364415,0.055812921567253905,0.692564269037406,8.899999999999999,-87.99999999999986,180.0,8.214193714285715,1.2520428124208656,1.8001661059661225,1.465,0.023497384291986383,2.685081138640337,0.005394665396295389,1.8838586678913968E-4,-1.3120640738063714,-0.20546375084797233,20.21714458564699,20.1584804304353,5.551115123125783E-16,-2.032813178675894,20.260717230237468,-5.758331170077055,1.5698134697407447E-15,0.06365176800733784,0.25130054455529666,10.454452016648725,3.107882496383354,-4.804951926664527,1.3099069909578998E-15,421.78810958358974,418.6802270872064,-1.3099069909578998E-15,4.804951926664527,2.334983876257428,0.3656487171343646,41.112239767517316,41.16967816874527,-2.7755575615628914E-16,0.9272037912429973,41.18011786516105,101260.20844799306
0.49,0.1931963812726311,0.030253745940449925,5.599843373351332,0.7181963977592054,0.11246655454944275,20.81709456597579,0.0,0.0,-2.1537027172147714E-18,-0.053897911846684736,0.7171712948364415,0.055812921567253905,0.692564269037406,8.899999999999999,-87.99999999999986,180.0,8.2129365,1.2519329889572308,1.7999354674573358,1.465,0.023496906186444833,2.684501346081839,0.005599843373351332,1.9555083963069335E-4,-1.3081045014741681,-0.20484369836778493,20.81709456597579,20.75820480859515,4.996003610813204E-16,-2.049745745387468,20.859159247110533,-5.639326680407887,1.3722984610291455E-15,0.06553202741486244,0.26635989960061873,10.459843448344097,3.2941244563241945,-4.987639723158815,1.21371410172741E-15,414.29927114838233,411.00514669205813,-1.21371410172741E-15,4.987639723158815,2.3250827187399605,0.3640982372440238,40.18531679190766,40.24297009303804,-3.3306690738754696E-16,0.9495372200019909,40.25417075088398,101257.74486341713
0.5,0.20048108484488922,0.03139450007712074,5.810968372076628,0.738986438918963,0.11572218811356845,21.387279139343143,0.0,4.775553506631554E-4,-2.36397522248127E-18,-0.05389792166100977,0.7171711730536956,0.05581291208967038,0.6925643951471311,8.899999999999975,-88.00002015020192,180.0,8.211679285714286,1.2518232588685718,1.799705331275726,1.465,0.02349642809907046,2.683922687719103,0.005810968372076628,2.029243209072683E-4,-1.3040477440531522,-0.2042084271088257,21.387279139343143,21.328186071542508,6.38378239159465E-16,-2.065533703995973,21.427971219522465,-5.531574095209549,1.706945490178121E-15,0.067319214668168,0.2810790959372519,10.465230296093681,3.4761596076463053,-5.162692533286706,1.5931151938291385E-15,405.89291321488673,402.4167536072404,-1.5931151938291385E-15,5.162692533286706,2.310408674171378,0.36180034318735205,39.146989849507776,39.20475697202413,2.220446049250313E-16,0.9709442682783647,39.216778322645034,101255.20992341642
0.51,0.20798661100509488,0.03256983410824751,6.02681340178446,0.7621416178954759,0.1193481923758973,21.77955057799161,0.0,0.004610091649051988,-1.6921674787939964E-18,-0.05389862471234995,0.7171624490068125,0.055812233152088865,0.6925734290451211,8.899999999999906,-88.00146361981841,-179.99999999999994,8.210422071428571,1.2517136221977825,1.7994756994796948,1.465,0.023495950029857778,2.6833451621328797,0.00602681340178446,2.1052131590702027E-4,-1.2975180406537516,-0.20318590284408186,21.77955057799161,21.72050142126419,-3.516444321002125E-16,-2.072071177628849,21.819112286165534,-5.449355945266622,-9.233987883820348E-16,0.06854823426123269,0.291428212819341,10.470612557791734,3.604149140131352,-5.273218274696896,-8.935520848034598E-16,401.5309114936994,397.92676235356805,8.935520848034598E-16,5.273218274696896,2.3039935565791416,0.36079576258115414,38.607543741784234,38.665388078769375,1.057173359612186E-15,0.9842552429184699,38.67791351229843,101252.61836414706
0.52,0.21572334297955875,0.033781374003679,6.246537681488727,0.7851932409770295,0.12295798021783512,22.164503734285457,0.0,0.008852463077780183,-1.4885662718897723E-18,-0.05390050101074901,0.7171391652559826,0.05581042112451859,0.6925975386476033,8.899999999999938,-88.0053160270221,-179.99999999999994,8.209164857142857,1.2516040789877834,1.7992465741389068,1.465,0.023495471978801308,2.682768767903494,0.006246537681488727,2.1835233439524473E-4,-1.290921624342387,-0.20215293161611753,22.164503734285457,22.105592988539055,-3.2321471451642247E-17,-2.0773369635746572,22.202985615344183,-5.368511162954777,-8.340697660732019E-17,0.06975443135832284,0.3017665036148586,10.475990231331208,3.7320047843074047,-5.379276531466685,-8.357423095631697E-17,403.6361398825116,399.9041350982042,8.357423095631697E-17,5.379276531466685,2.322169172114728,0.36364198801820913,38.85539381156362,38.91366204482886,5.313695646945831E-16,0.9966141039189329,38.926422047384044,101249.98028372301
0.53,0.2236907797196479,0.035029041301293175,6.470104109517245,0.8082738776669959,0.1265723114696027,22.547843125448285,0.0,0.013184123349493893,-1.7868755370163555E-18,-0.05390357358640976,0.7171010330302792,0.05580745353373839,0.6926370198824721,8.899999999999961,-88.01162489531329,-179.99999999999994,8.207907642857142,1.2514946292815203,1.7990179573343636,1.465,0.023494993945895565,2.6821935036108377,0.006470104109517245,2.2641686921709642E-4,-1.2841281619096945,-0.201089103789008,22.547843125448285,22.48916875232754,-7.071685252514018E-17,-2.081331401556473,22.585275105115954,-5.287557575212761,-1.7939906294175682E-16,0.07095566289031649,0.31224085171537275,10.481363314603817,3.861543075520503,-5.482060339022691,-1.8599825606083686E-16,397.20253255688954,393.34098948136904,1.8599825606083686E-16,5.482060339022691,2.3021847652020306,0.3605125134104317,38.06354112887534,38.12147432929186,-2.238082255322333E-16,1.0081578231547312,38.13480283461603,101247.29613054119
0.54,0.231888907649583,0.03631283387517975,6.697491282422107,0.8313891103520046,0.1301920603096173,22.930452035620583,0.0,0.01760160044780558,-2.4415251611221426E-18,-0.0539078666229434,0.7170477472281553,0.05580330663561795,0.6926921834984081,8.899999999999944,-88.02044027742029,-179.99999999999994,8.206650428571429,1.2513852731219666,1.7987898511584859,1.465,0.023494515931135076,2.681619367834374,0.006697491282422107,2.3471490663134976E-4,-1.2771354562096944,-0.19999407529887506,22.930452035620583,22.872113781420563,-3.1629360390336343E-16,-2.0840139950069947,22.966860977539646,-5.2061827465895085,-7.890624934930346E-16,0.07215469435534412,0.3228737619431748,10.486731805499927,3.9930423352657596,-5.581502730416865,-8.459469588896023E-16,399.27481234469695,395.28177000943117,8.459469588896023E-16,5.581502730416865,2.3152947221732756,0.3625654778856744,38.30716234441866,38.36525296691497,-4.0543777130807746E-17,1.018869492503543,38.37877968693018,101244.56616454372
0.55,0.24031853060382594,0.03763287760245622,6.928708799224298,0.8545326954150865,0.13381624901355374,23.312859496186633,0.0,0.022101666393356756,-3.543967413226828E-18,-0.05391340342002036,0.7169790115727005,0.05579795737279274,0.6927633288858457,8.899999999999869,-88.031810582483,-179.9999999999999,8.205393214285714,1.2512760105521217,1.798562257715187,1.465,0.023494037934514354,2.6810463591531333,0.006928708799224298,2.4324726026868932E-4,-1.2699551694831126,-0.19886967240387968,23.312859496186633,23.25495837066976,-9.515207716322577E-16,-2.08534513846792,23.34827088176157,-5.124186795388422,-2.334996223473939E-15,0.073353183633907,0.3336793073344531,10.492095701908612,4.1266766075068215,-5.6774485514037405,-2.587107272987387E-15,399.3600591770778,395.233382569571,2.587107272987387E-15,5.6774485514037405,2.317560116542017,0.36292022917674366,38.30870400588276,38.36666952184682,1.2275802592579849E-15,1.0287217303372087,38.380458551154256,101241.7902735042
0.56,0.24898019362369447,0.038989257834315214,7.163766176425868,0.8778105800525076,0.1374614684695943,23.69894976807349,0.0,0.02668215822903288,-5.4302085262747646E-18,-0.0539202062871715,0.7168945398088127,0.05579138346783244,0.6928507427123644,8.899999999999919,-88.04578236770628,-179.99999999999994,8.204136,1.25116684161501,1.7983351791199558,1.465,0.02349355995602792,2.680474476145716,0.007163766176425869,2.520144818127782E-4,-1.2624864713893675,-0.1977001054940564,23.69894976807349,23.64158971127987,-5.661554429755294E-16,-2.085284981821128,23.7333768674393,-5.040677192710665,-1.3667805307284661E-15,0.07456329575007584,0.34476970534412804,10.497455001717732,4.263833707238491,-5.770546734975544,-1.5646847888670204E-15,404.7355052848841,400.47167157764557,1.5646847888670204E-15,5.770546734975544,2.339037220202759,0.3662834538572938,38.95438404904068,39.01246335017717,1.6906564764603413E-16,1.0377854679627698,39.02626417332587,101238.96834624735
0.5700000000000001,0.25787488254913093,0.04038212894917192,7.402693649422653,0.9011627178932204,0.14111831566696656,24.08775521058362,0.0,0.031339813844501886,-6.7192731584104776E-18,-0.05392829673677467,0.7167940531902884,0.05578356322767694,0.692954701402481,8.899999999999913,-88.06240074412662,-179.99999999999994,8.202878785714287,1.251057766353684,1.7981086174999348,1.465,0.02349308199567029,2.6799037173902907,0.007402693649422653,2.6101756911785766E-4,-1.2547955927301213,-0.1964957460361673,24.08775521058362,24.031039890153753,-4.767161782317297E-16,-2.083793521600355,24.121216255463253,-4.955868620601269,-1.1323568740899658E-15,0.07578200655464112,0.3561217243574694,10.502809702813753,4.404226324582826,-5.8602646795139375,-1.3390005873539759E-15,411.1130890679745,406.70886274339165,1.3390005873539759E-15,5.8602646795139375,2.3616195897189707,0.3698197585519076,39.722104467174766,39.78021501165013,3.484932083366995E-16,1.04598789123549,39.7939643292988,101236.10002293193
0.58,0.2670041568223274,0.041811735149156676,7.645546881847532,0.9246860848128111,0.1448019766225255,24.483006443570712,0.0,0.036073444160577624,-7.087102493399924E-18,-0.05393769567557694,0.7166772779855687,0.05577447534952432,0.6930754735986255,8.899999999999915,-88.08170977934715,-179.99999999999994,8.201621571428571,1.250948784811222,1.7978825749939997,1.465,0.023492604053435992,2.6793340814645936,0.007645546881847532,2.702581006308326E-4,-1.246792960864642,-0.19524256732899728,24.483006443570712,24.427041650179614,-4.709014535847884E-16,-2.0808299026487536,24.515509720651675,-4.869015222060636,-1.1005549615089466E-15,0.07702100570430959,0.36785087248250076,10.508159803081892,4.549282970678758,-5.947191209326134,-1.3442576155463823E-15,410.4600423108954,405.91075934021666,1.3442576155463823E-15,5.947191209326134,2.3527354636043145,0.3684285415290772,39.63288960076233,39.69039436602873,1.8691217458442306E-16,1.0533930545919539,39.704370563681394,101233.1846385467
0.59,0.2763688553328743,0.04327820780087364,7.892368746937324,0.9482626043034985,0.1484939610485938,24.88208225992414,0.0,0.04087886284623355,-8.01817334995835E-18,-0.053948422979206045,0.7165439506520144,0.05576409932351211,0.6932133146938012,8.899999999999931,-88.10375163252542,-179.9999999999999,8.200364357142858,1.2508398970307286,1.7976570537528427,1.465,0.023492126129319536,2.6787655669459283,0.007892368746937325,2.7973692546472807E-4,-1.2386027568437359,-0.19396001560615078,24.88208225992414,24.826971934745153,-4.375434603478634E-16,-2.0763524310696746,24.913646358303964,-4.780688566112697,-1.0062514844651145E-15,0.07827209084872244,0.379886826523041,10.513505300406061,4.6981339449417225,-6.030365917557505,-1.2692867507460697E-15,412.4090924555521,407.7109585106104,1.2692867507460697E-15,6.030365917557505,2.3514944027921296,0.36823419659227724,39.86045353781938,39.9173839383764,-1.0327591769662035E-16,1.0598764583812974,39.93145224745226,101230.22168173517
0.6,0.2859692417943476,0.04478158820076674,8.14319391736605,0.9718180706508586,0.15218264864039807,25.283660839373177,0.0,0.04575161244742575,-8.596716457347078E-18,-0.05396049735083072,0.7163938194923963,0.05575241556163139,0.6933684650154337,8.899999999999924,-88.12856627212881,-179.99999999999994,8.199107142857143,1.2507311030553352,1.7974320559390522,1.465,0.023491648223315446,2.6781981724111668,0.00814319391736605,2.89454310546962E-4,-1.2303044065537525,-0.19266052862950947,25.283660839373177,25.229507555719994,-5.344311823806592E-17,-2.0703190450956805,25.314309638080555,-4.691148257504413,-1.2096182605167792E-16,0.07953112612723175,0.3921943733019964,10.518846192668871,4.850343759191919,-6.109131819653929,-1.5752470395997797E-16,417.084967516504,412.2346237573121,1.5752470395997797E-16,6.109131819653929,2.3578864576392187,0.3692351656689618,40.42021493884302,40.476595290304175,2.6006079489147777E-16,1.0653509103129422,40.49061297210692,101227.21073968362
0.61,0.2958051006592429,0.04632184259499758,8.398052163393277,0.995356957793135,0.15586873999797066,25.688868584985954,0.0,0.050688190032155446,-8.815657613676527E-18,-0.053973936203398194,0.7162266460294486,0.055739405504699656,0.6935411483121737,8.899999999999917,-88.15619124129755,-179.9999999999999,8.19784992857143,1.2506224029281987,1.7972075837271952,1.465,0.023491170335418237,2.677631896436748,0.008398052163393278,2.9941003770318146E-4,-1.2218980557222352,-0.19134412921939783,25.688868584985954,25.63577454084918,-3.15795644355907E-16,-2.062687640405351,25.7186239253023,-4.60018252376812,-7.035274384337082E-16,0.0808016443246207,0.4048125895267595,10.524182477751664,5.006395682636487,-6.183410132082337,-9.456578447773356E-16,421.67913759195295,416.67274190931647,9.456578447773356E-16,6.183410132082337,2.3604750005565927,0.36964052067231257,40.96986754816857,41.02552925895128,-5.383846414067487E-17,1.069800112362773,41.03947518252703,101224.15145852095
